{
"type": "FeatureCollection",
"name": "metro_stations",
"crs": { "type": "name", "properties": { "name": "urn:ogc:def:crs:OGC:1.3:CRS84" } },
"features": [
{ "type": "Feature", "properties": { "station": "Skalka" }, "geometry": { "type": "Point", "coordinates": [ 14.507680627063998, 50.068267537051327 ] } },
{ "type": "Feature", "properties": { "station": "Staroměstská" }, "geometry": { "type": "Point", "coordinates": [ 14.416247879964729, 50.088682966188692 ] } },
{ "type": "Feature", "properties": { "station": "Strašnická" }, "geometry": { "type": "Point", "coordinates": [ 14.491208648980354, 50.072712287460156 ] } },
{ "type": "Feature", "properties": { "station": "Křižíkova" }, "geometry": { "type": "Point", "coordinates": [ 14.451682206810627, 50.093657606256457 ] } },
{ "type": "Feature", "properties": { "station": "Rajská zahrada" }, "geometry": { "type": "Point", "coordinates": [ 14.559960522790623, 50.106710606968768 ] } },
{ "type": "Feature", "properties": { "station": "Radlická" }, "geometry": { "type": "Point", "coordinates": [ 14.389430319012856, 50.057964775427088 ] } },
{ "type": "Feature", "properties": { "station": "Letňany" }, "geometry": { "type": "Point", "coordinates": [ 14.51643376505926, 50.124933786455664 ] } },
{ "type": "Feature", "properties": { "station": "Luka" }, "geometry": { "type": "Point", "coordinates": [ 14.322207394657086, 50.045244190469184 ] } },
{ "type": "Feature", "properties": { "station": "Anděl" }, "geometry": { "type": "Point", "coordinates": [ 14.403430902015639, 50.068825558814375 ] } },
{ "type": "Feature", "properties": { "station": "Náměstí Republiky" }, "geometry": { "type": "Point", "coordinates": [ 14.432431917653366, 50.08821368423154 ] } },
{ "type": "Feature", "properties": { "station": "Českomoravská" }, "geometry": { "type": "Point", "coordinates": [ 14.493099533588483, 50.106434405305322 ] } },
{ "type": "Feature", "properties": { "station": "Národní třída" }, "geometry": { "type": "Point", "coordinates": [ 14.419871243366419, 50.081288396381083 ] } },
{ "type": "Feature", "properties": { "station": "Hloubětín" }, "geometry": { "type": "Point", "coordinates": [ 14.537293847369094, 50.106461059183772 ] } },
{ "type": "Feature", "properties": { "station": "I. P. Pavlova" }, "geometry": { "type": "Point", "coordinates": [ 14.430704355949327, 50.07541320287573 ] } },
{ "type": "Feature", "properties": { "station": "Jiřího z Poděbrad" }, "geometry": { "type": "Point", "coordinates": [ 14.449042427087956, 50.077741094273378 ] } },
{ "type": "Feature", "properties": { "station": "Karlovo náměstí" }, "geometry": { "type": "Point", "coordinates": [ 14.418931247297143, 50.075269599917682 ] } },
{ "type": "Feature", "properties": { "station": "Lužiny" }, "geometry": { "type": "Point", "coordinates": [ 14.331679639311615, 50.044605043353769 ] } },
{ "type": "Feature", "properties": { "station": "Palmovka" }, "geometry": { "type": "Point", "coordinates": [ 14.476627146470124, 50.104490334684215 ] } },
{ "type": "Feature", "properties": { "station": "Černý Most" }, "geometry": { "type": "Point", "coordinates": [ 14.57659947869703, 50.108821259231277 ] } },
{ "type": "Feature", "properties": { "station": "Smíchovské nádraží" }, "geometry": { "type": "Point", "coordinates": [ 14.408930485095475, 50.061880975567121 ] } },
{ "type": "Feature", "properties": { "station": "Vysočanská" }, "geometry": { "type": "Point", "coordinates": [ 14.502432986946193, 50.110517479982967 ] } },
{ "type": "Feature", "properties": { "station": "Náměstí Míru" }, "geometry": { "type": "Point", "coordinates": [ 14.437958977155501, 50.07554687083347 ] } },
{ "type": "Feature", "properties": { "station": "Petřiny" }, "geometry": { "type": "Point", "coordinates": [ 14.345274527245008, 50.086623450053267 ] } },
{ "type": "Feature", "properties": { "station": "Bořislavka" }, "geometry": { "type": "Point", "coordinates": [ 14.362275927092439, 50.098618043133868 ] } },
{ "type": "Feature", "properties": { "station": "Nádraží Veleslavín" }, "geometry": { "type": "Point", "coordinates": [ 14.347744114135129, 50.095706358465655 ] } },
{ "type": "Feature", "properties": { "station": "Jinonice" }, "geometry": { "type": "Point", "coordinates": [ 14.371207900178929, 50.054492970359519 ] } },
{ "type": "Feature", "properties": { "station": "Opatov" }, "geometry": { "type": "Point", "coordinates": [ 14.507539465430778, 50.028017621813298 ] } },
{ "type": "Feature", "properties": { "station": "Roztyly" }, "geometry": { "type": "Point", "coordinates": [ 14.477734489973846, 50.037268314151923 ] } },
{ "type": "Feature", "properties": { "station": "Háje" }, "geometry": { "type": "Point", "coordinates": [ 14.52876179487987, 50.031100419582401 ] } },
{ "type": "Feature", "properties": { "station": "Depo Hostivař" }, "geometry": { "type": "Point", "coordinates": [ 14.515514365313956, 50.075795101534858 ] } },
{ "type": "Feature", "properties": { "station": "Vyšehrad" }, "geometry": { "type": "Point", "coordinates": [ 14.430402652115632, 50.063102638628713 ] } },
{ "type": "Feature", "properties": { "station": "Hlavní nádraží" }, "geometry": { "type": "Point", "coordinates": [ 14.434178716152037, 50.083273393888042 ] } },
{ "type": "Feature", "properties": { "station": "Hradčanská" }, "geometry": { "type": "Point", "coordinates": [ 14.404487980059237, 50.097075374014914 ] } },
{ "type": "Feature", "properties": { "station": "Kačerov" }, "geometry": { "type": "Point", "coordinates": [ 14.460568135109289, 50.041935380223158 ] } },
{ "type": "Feature", "properties": { "station": "Nemocnice Motol" }, "geometry": { "type": "Point", "coordinates": [ 14.340050080411574, 50.074727570913822 ] } },
{ "type": "Feature", "properties": { "station": "Chodov" }, "geometry": { "type": "Point", "coordinates": [ 14.49187301653008, 50.031156877735263 ] } },
{ "type": "Feature", "properties": { "station": "Kolbenova" }, "geometry": { "type": "Point", "coordinates": [ 14.515266299551156, 50.110517175098586 ] } },
{ "type": "Feature", "properties": { "station": "Ládví" }, "geometry": { "type": "Point", "coordinates": [ 14.469545098411963, 50.126268214360209 ] } },
{ "type": "Feature", "properties": { "station": "Nové Butovice" }, "geometry": { "type": "Point", "coordinates": [ 14.353402208194204, 50.050882317695262 ] } },
{ "type": "Feature", "properties": { "station": "Malostranská" }, "geometry": { "type": "Point", "coordinates": [ 14.409348792549064, 50.090964171301394 ] } },
{ "type": "Feature", "properties": { "station": "Pankrác" }, "geometry": { "type": "Point", "coordinates": [ 14.439985319701345, 50.051074708403043 ] } },
{ "type": "Feature", "properties": { "station": "Muzeum" }, "geometry": { "type": "Point", "coordinates": [ 14.430098051793687, 50.079935958972321 ] } },
{ "type": "Feature", "properties": { "station": "Želivského" }, "geometry": { "type": "Point", "coordinates": [ 14.474570162784637, 50.07876825991498 ] } },
{ "type": "Feature", "properties": { "station": "Vltavská" }, "geometry": { "type": "Point", "coordinates": [ 14.438293596536415, 50.099269001498584 ] } },
{ "type": "Feature", "properties": { "station": "Dejvická" }, "geometry": { "type": "Point", "coordinates": [ 14.392071536197516, 50.100797910250769 ] } },
{ "type": "Feature", "properties": { "station": "Střížkov" }, "geometry": { "type": "Point", "coordinates": [ 14.489461794429872, 50.126128809669709 ] } },
{ "type": "Feature", "properties": { "station": "Prosek" }, "geometry": { "type": "Point", "coordinates": [ 14.498542807426695, 50.119285126224788 ] } },
{ "type": "Feature", "properties": { "station": "Pražského povstání" }, "geometry": { "type": "Point", "coordinates": [ 14.433763508264756, 50.056519251297694 ] } },
{ "type": "Feature", "properties": { "station": "Můstek" }, "geometry": { "type": "Point", "coordinates": [ 14.425681572138489, 50.082547122199593 ] } },
{ "type": "Feature", "properties": { "station": "Stodůlky" }, "geometry": { "type": "Point", "coordinates": [ 14.307540927172182, 50.046744532661663 ] } },
{ "type": "Feature", "properties": { "station": "Zličín" }, "geometry": { "type": "Point", "coordinates": [ 14.290707992021531, 50.053883749607905 ] } },
{ "type": "Feature", "properties": { "station": "Hůrka" }, "geometry": { "type": "Point", "coordinates": [ 14.341874315067487, 50.050076991991013 ] } },
{ "type": "Feature", "properties": { "station": "Budějovická" }, "geometry": { "type": "Point", "coordinates": [ 14.449901482216939, 50.043435589867123 ] } },
{ "type": "Feature", "properties": { "station": "Invalidovna" }, "geometry": { "type": "Point", "coordinates": [ 14.464654614071565, 50.097323999161787 ] } },
{ "type": "Feature", "properties": { "station": "Kobylisy" }, "geometry": { "type": "Point", "coordinates": [ 14.452628407905614, 50.124185242098598 ] } },
{ "type": "Feature", "properties": { "station": "Florenc" }, "geometry": { "type": "Point", "coordinates": [ 14.43954325026519, 50.091268996498123 ] } },
{ "type": "Feature", "properties": { "station": "Nádraží Holešovice" }, "geometry": { "type": "Point", "coordinates": [ 14.440488537552152, 50.108380063240624 ] } },
{ "type": "Feature", "properties": { "station": "Flora" }, "geometry": { "type": "Point", "coordinates": [ 14.461014676592953, 50.078268576605787 ] } }
]
}
