nazev,lon,lat
Restaurace u Čébi,14.5195117,50.1586118
Bartek,14.5276043,50.154436
Pub on the pitch,14.4469115,50.1478251
U Herčíků,14.5312914,50.1528506
KINO Music Club,14.5260528,50.1516497
Beer bar Chmeloun,14.4315107,50.14379
Bar Chýše,14.432569,50.141162
V ohbí řeky,14.3940333,50.135881500000004
Vinárna U Páji,14.5785009,50.1455182
At the Unicorn,14.566339,50.151656
Restaurace pod Hvězdárnou,14.4775684,50.1431974
Vinotéka Mucho Gusto,14.4499764,50.1400917
Kozlovna,14.432133,50.135742
Bar Sever,14.3777638,50.1331971
Klub C,14.3761879,50.1299548
SOUTH club,14.3769783,50.1307752
U Kačera,14.5789784,50.1436337
NEW TRIO BAR,14.5109564,50.140859
Pub U Jeníka,14.5050597,50.1395632
Bílovická vinárna Letňany,14.5055098,50.1399074
Snackbar Na Kotvě,14.5097208,50.1403949
Pivovar Šedivák,14.4244135,50.1314236
Grey,14.4244453,50.13142
Hospoda Na Růžku,14.4219257,50.1312702
Bonaccia Pizzeria,14.414315,50.1322953
"SPORT GAMES WIN, a.s.",14.4100146,50.1313403
Hoffmanův dvůr,14.582071,50.141862
Motokáry Praha - Maximální jízda,14.518207,50.136672
Hospoda Radegast,14.5146132,50.1365443
Lahváček,14.5145875,50.136518
Bar Letka,14.5106702,50.1355291
Sportbar Klubovna,14.5107766,50.1346289
Sportbar Offside,14.5012747,50.1350535
Fruitisimo Letňany,14.502469,50.135731
Surf Arena,14.5021457,50.1340576
Sportovní areál Beachklub Ládví,14.4753348,50.1327954
Sport Bar - Winland,14.4780129,50.1326257
Pivnice na konečné,14.4799416,50.1329923
Radost Bar,14.4810205,50.1302422
Bar Kantáre,14.4704555,50.1334565
Disco club Fleapit,14.451505,50.1297374
Music Bar Veranda,14.4513559,50.1275039
Na Zápraží,14.4453558,50.1304451
Poctivej Výčep,14.4476223,50.1268161
Fruitisimo Krakov,14.4175861,50.1276569
Dřevák,14.4128333,50.1272604
Lucky Casino Bonver,14.4128822,50.1267072
Pilsner Urquell Original Restaurant,14.2688175,50.1104061
club Shelter,14.5559906,50.1314672
The Three Bulls,14.5534162,50.1312517
Sports Bar Třetí Poločas,14.4992291,50.1288357
Fruitisimo Prosek,14.489072,50.128456
lobby Bar,14.485891,50.1269136
Pubs Satanka,14.475709,50.128112
Zanzibar LÁDVÍ,14.474479,50.128181
Restaurace a Bar U Zvonečku,14.4721031,50.127015
Cobolis pivovar Ládví,14.4701699,50.1270844
Pod Hájem,14.4728267,50.1261648
Pod Věží,14.4732076,50.1252066
Music club Bella,14.4683621,50.1273791
Grill Bar Vinárna-rodr A spol.,14.4575395,50.125734
Vinný loch,14.4573419,50.126312
bar Amarula,14.4562295,50.1242955
Separé Vinotéka Brejša Miroslav,14.4512735,50.1221652
Hostinec u Jirky,14.4475488,50.1261566
Sniper Zone,14.4533963,50.1221557
Zlatá Praha S.r.o.,14.4102401,50.1206975
VIP Club Continental,14.2695963,50.108872
Menzies Lounge,14.267981,50.1087014
MasterCard Lounge,14.2681225,50.1086191
Mattoni,14.2682071,50.1080093
ERSTE Lounge,14.2652947,50.1055909
Raiffeisenbank Lounge,14.2656232,50.1055454
Kooperativa - Relaxation Zone,14.264883,50.1058839
Shorty's Pub,14.2652163,50.1056988
Vinotéka Pampinus,14.5002265,50.1221106
Kafe Bar Jablonecká,14.4937225,50.1251561
U NETOPÝRA,14.4947541,50.125321
Ruska Diskoteka,14.4940795,50.1253109
Play Club Bar,14.4936913,50.1251804
Magic planet,14.4928851,50.1218675
RETRO BAR,14.4935732,50.1213958
Pivnice BOLESLAVKA,14.4910214,50.1235803
Svatojánský Dvůr,14.4829369,50.1250413
Vinotéka Naskok - Prosek,14.4939343,50.1210319
Zetko pub,14.4624186,50.1190735
Bar v Zenklovce,14.458739,50.120156
Víno CLV (vinotéka) Jan Pleticha,14.456073,50.122467
Olanaora Sora,14.4533626,50.1217767
Vinice sv. Kláry,14.4152252,50.1177231
U Petra,14.4189282,50.116583
Trojan brewery,14.4108792,50.1149735
bar Fišerka,14.3800714,50.1129056
Business Lounges,14.2657687,50.1052038
Ducati Bar,14.572063,50.126147
Hospůdka U Dášeny,14.5718212,50.1250032
"Minipivovar Beznoska, Penzion Školička",14.507213,50.11748
U Topení,14.4953952,50.1204346
BOŠ - aromata s.r.o.,14.4813833,50.11466
Pivovar u Bulovky,14.466298,50.1152747
Restaurace U čerta,14.471114,50.115884
Black Cat Wine Bar,14.4710219,50.1153171
Nonstop Na Dědince,14.4713421,50.1151219
Ganja,14.4735831,50.1143377
na 4F86+VH Praha,14.461546,50.1171554
Blues Club Bahnhof,14.4042242,50.1079318
Restaurace U Pramene,14.4024713,50.1077269
Marpek Whisky,14.3941123,50.1083904
U Zeleného mnicha - Vinárna - sýrárna,14.3949066,50.107268
Zvláštní časy,14.395427,50.1089869
Hanspaulský bar U Hřebíka,14.3748683,50.1078717
U Hubatků,14.5034742,50.1119777
U Kocoura,14.5027368,50.111817
Restaurace Bobová dráha,14.489089,50.114228
Дубас,14.4756048,50.1122357
Club 55,14.4749698,50.1119908
Discoland Sylvie,14.4720138,50.1104533
Hostinec u Vody,14.4480085,50.1108088
Mercuria Laser Game,14.444704,50.108712
Pivní bar u Tonyho,14.4471994,50.1088826
Café Bar Pepek,14.448211,50.1076675
Cross Club,14.4432571,50.1081771
"Holešovický Pražan, provozovna U Primasů",14.4281006,50.1066763
Containall,14.4221868,50.1093781
Containall Stromovka,14.4220424,50.1093231
Engine Wine Shop & Bar,14.3967524,50.1033592
Bowling & Billiard Dejvice,14.389064,50.105524
Restaurace Na Hanspaulce,14.372509,50.104065
Galvin,14.3728648,50.1037761
ADAMS BARBER BAR,14.3329128,50.0974406
The inn Girls Return,14.320719,50.099766
Restaurace Čertousy,14.6339155,50.11873
Freestyle Kolbenka,14.521045,50.111219
Billiard centrum Kolbenka,14.5144681,50.1094141
Atelier Kolbenka,14.5111135,50.110454
PERMANENT BEER FEST,14.5110066,50.1095921
Restaurace u Šebestiána,14.5052233,50.1108131
Fruitisimo Fénix,14.501297,50.110577
Restaurant Klid po práci,14.49705,50.109832
Obchod s vinem U Vinic,14.498487,50.1114246
EXIT-US,14.4891604,50.1073991
Kolčavka Microbrewery,14.4824804,50.1082795
Vinárnička U Mámy,14.4933063,50.1070103
Delfinárium,14.4908762,50.1062137
Magic Club,14.4750249,50.1073392
Bar NA MĚSÍCI,14.475257,50.1064098
Music Club Palmovka,14.4788583,50.1054282
Weed Bar,14.4754431,50.108749
Dřevona,14.4753619,50.1086516
U Králů,14.4741628,50.1092104
Na Měsíci,14.475257,50.1064098
Divadelní kavárna Divadla pod Palmovkou,14.4731254,50.1054966
"NAPALMĚ, pivní bar",14.4730617,50.1042898
Pivnice U Světa,14.4725752,50.106229
Long Island,14.4690809,50.1070072
Libeňská klubovna,14.4690884,50.1069329
U Budyho,14.4647526,50.1064318
Vítek Martin,14.4526444,50.1059761
Vinárna Bzenecký dvůr,14.4538515,50.1060118
Biblioteca del Vino,14.4501656,50.1039844
Pizzeria - Bar,14.452858,50.1033922
Hostinec U Pivovaru,14.4484206,50.1065423
Hostinec Poupětka,14.4483307,50.1065662
Sir Toby's Hostel,14.448115,50.103069
ABSOLUTE BOWLING,14.4470022,50.1057069
World wines,14.4446856,50.1033279
Bami s.r.o.,14.4472027,50.1032908
Bar Pětka,14.4490865,50.1031123
Tecno club,14.4478302,50.1051057
U Golmana,14.4458659,50.1033469
JACK DANIELS STUDIO,14.4494304,50.1029746
Bohemia Bagel Bar & Grill - Holešovice,14.4326301,50.102869
Klasick Wheels motorcycle store & coffee,14.4380395,50.1035397
Wildt Bar,14.4313569,50.1039868
"""Nemáš Zač"" - Ladies Club",14.4336905,50.1022712
Skutečná pivnice,14.433039,50.1024478
Kontrast Bar,14.425455,50.102189
Bar - Club Stromoffka,14.426222,50.102909
Misch Masch - Music Club,14.426235,50.100817
bar Kamenicka,14.4262755,50.1026496
U houbaře,14.4333899,50.1011634
Barré,14.4272703,50.1009774
Elbow Room,14.4262562,50.1010905
Café Spitfire,14.4266797,50.1008316
Base Camp pivní galerie,14.4250033,50.1015933
Tiskárna na Vzduchu,14.4293565,50.1054831
Mama Shelter,14.4316962,50.1023853
Klub AVU,14.4252969,50.1027619
Zálusk,14.4262085,50.102032
contrast Bar,14.4254548,50.1021888
Barometr,14.4264753,50.1014877
Klub Ajeto,14.42226,50.1006764
Fraktal,14.4225081,50.1002722
Lokál Nad Stromovkou,14.4183495,50.1030785
Kyklop,14.420875,50.1002658
Vinný bar U vzducholodě,14.4224882,50.1012976
Winnie,14.4193548,50.1026811
Snack Bar Tulipán,14.4223343,50.0997783
Záletná Sova,14.422182,50.1008496
The PUB Praha 6,14.401446,50.1007335
Pálavská tavern,14.4025129,50.1007547
Na břehu Rhôny Dejvice,14.4027096,50.102372
Za školou,14.402071,50.102113
Pivovar Bubeneč,14.404452,50.1011453
Sixis bar,14.3974919,50.1004441
Totoro,14.4021736,50.1024866
"Václav Abraham - Bar catering, barmanská show",14.4010125,50.1021989
Glass of Wine,14.4003172,50.1023307
La Fuente music bar,14.399954,50.0995416
Piraňa Bar,14.4040582,50.0984872
Charlies,14.402666,50.0984982
Wellpet,14.3978299,50.1001467
Pivnice U Zívalů,14.397699,50.098609
"TDG,s.r.o.",14.3987796,50.0986911
Pivní Jistota,14.3979753,50.0987089
Oáza,14.3847396,50.1006894
Escobaras,14.3669582,50.0978702
Kavárna Jen Tak,14.3608275,50.0963939
Balada Bar,14.3591357,50.0983246
Barca Steak,14.3596043,50.0975748
Ballon restaurant,14.3544945,50.0950079
Vinárna,14.3505271,50.0956109
Above Šárka and Liboc brewery,14.323899,50.092447
Restaurace U Džbánu,14.3266413,50.0921917
green Muse,14.3096193,50.0907655
Svijanská Hospůdka,14.6261867,50.1159481
Restaurace Na radosti,14.6169538,50.1161695
Vinný šenk U Džonyho,14.6134667,50.1153385
Pension Rodos - Café,14.6064949,50.114194
Tenis Club Horní Počernice,14.597802,50.110518
Na Růžku,14.597363,50.1125131
U Chlupáče,14.6011144,50.1111661
Wine Bar La Garage,14.5617741,50.1092195
Restaurace a bar U Matěje,14.5438978,50.1075261
At the old tavern,14.5356397,50.1056734
Pivnice U Žraloka,14.5382804,50.1067964
PALUX C.S. spol. s r.o.,14.5200484,50.1047294
Pivárna U Klauna,14.5117808,50.1040261
bar Nine,14.5123076,50.1030651
SPORTBAR BET90,14.4912498,50.1038245
Fruitisimo Galerie Harfa,14.490945,50.103916
KAJOT Intacto Praha Harfa,14.4909688,50.1037892
U Zdi,14.4896667,50.1048006
Magic Rock Bar ILLUSION,14.4874897,50.1057938
Bar Balabenka,14.4856698,50.1040227
"Slapské Reality, s.r.o.",14.4797439,50.1038776
Cocktail Bar B3,14.4850717,50.1041865
Rock Club Error,14.4798772,50.1040634
Cafe DECADA,14.4772037,50.1045343
Hard Rock Bar,14.4754478,50.1023514
El Corazon Pepe Lopez,14.4761572,50.1037948
Synot Tip Sport Bar,14.4784,50.1030565
PandaHouse,14.4796132,50.1022363
Tipsport bar,14.4753927,50.102377
worm Club,14.4703299,50.0993475
SPORTBAR KAČAMBA,14.4699564,50.0995154
Double Helix club,14.4703299,50.0993475
HUGO BAR,14.4686185,50.0989903
Chill-out cafe STYX,14.4691162,50.099145300000004
Bondy Bar,14.4490568,50.1020033
SVOBODA U.Part,14.4483857,50.1019167
Centrála,14.4514922,50.1006519
Jatka 78,14.446674,50.100167
Jatka78,14.4465931,50.1001956
ShowPark MARKET,14.446776,50.0986411
Hospůdka Vrátnice - Pivní Bar,14.4458306,50.0984751
BIO OKO,14.430005,50.0999962
Sklípek Vaše Víno,14.4307267,50.0999607
Pivnice U Pivoje,14.4307432,50.0991451
RADAVA,14.428402,50.099537
Pivnice KOVADLINA U LÁZNÍ,14.4322112,50.0977817
Cobra,14.4323729,50.099215
Bar Rabar,14.4355107,50.0997123
Pivnice U Pivoje,14.4307432,50.0991451
Belcredi Bistro,14.4303737,50.0992643
Thirsty Dock,14.4325671,50.0978771
Bar Atlantik,14.4334626,50.0995353
Mr.HotDoG,14.4277813,50.0994932
Cobra plus spol. s r.o.,14.4320354,50.0992116
HANGÁR - řemeslné pivo & víno & spol.,14.4227234,50.0991726
Hells Bells Beer Pub,14.4244711,50.0980748
Koštovna u Počtů,14.427055,50.0997376
RESTAURACE NA KOVÁRNĚ,14.4276104,50.0989851
Stalin,14.4160803,50.0946844
Prague Beer Festival,14.4191038,50.0984804
Edison bar Letná,14.42226,50.1006764
Klášterní pivnice,14.4245347,50.0993196
Sedmý schod,14.4246599,50.099721
Miki oslava,14.4134027,50.096093
Restaurace Dejvická Sokolovna,14.404791,50.098088
Krkonošská hospůdka,14.406564,50.098271
Restaurace Na Hradčanské,14.4033977,50.09674
Na staré Vozovně,14.3898391,50.0942015
old Ořechovka,14.3805873,50.0952122
Samo Jídelna-pivnice - Jiří Scherzl,14.3486985,50.0895566
"Robert Jareš, Samo jídelna a pivnice",14.3486985,50.0895566
Bar Étoile,14.343974,50.089228
Bar Nika,14.342062,50.0877865
Grafitti wall,14.345065,50.0884473
Cadillac Klub Česká Republika,14.6024633,50.1105582
Fruitisimo CČM,14.5866234,50.1086485
Fruitisimo Centrum Černý Most,14.5832921,50.108793
Alžběta Suchelová - Sýkorka,14.5806585,50.1070167
Vinný Bar Lucie,14.5767188,50.1077321
Sport Bar U Broučka,14.5788417,50.1065943
Pivotéka Černý Most,14.5755196,50.1061203
Pivní bar Podkova,14.5751372,50.1069731
Bar Domino,14.578466,50.1062754
Club U Vitamína,14.578466,50.1062754
Šenk na Rajské,14.5618173,50.1065204
Pivnice Sparta,14.5582651,50.1057775
Vinotéka S.P.Z,14.554193,50.1041728
Hostinec V Chaloupkách,14.5390138,50.1023779
BarCom CZ spol. s r.o.,14.5211322,50.1029989
Sportbar Laguna,14.5010827,50.1017542
Borneo Olympik,14.4685288,50.0986797
wine Karlin,14.4552313,50.0941619
VELTLIN,14.4568452,50.0939363
Vinotéka Správná adresa,14.4526333,50.0944326
Diego Beer Bar,14.4552287,50.0947584
Deli Shop,14.4562497,50.0935178
Scrollbar,14.4512675,50.0951466
Wine Bar Křižík,14.451491,50.0943397
Přístav 18600,14.4482929,50.0963578
Na břehu Rhôny,14.4480146,50.0946061
Restaurace a Sportbar U Zábranských,14.453257,50.0931628
Lokál Hamburk,14.446804,50.093192
Frutisimo,14.4532082,50.0931407
Tax magic,14.4465784,50.0939544
Cloud 9 Sky Bar & Lounge,14.439523,50.093484
Sauna David,14.443406,50.0921058
Renault Task Force,14.4413414,50.0934872
VILA Štvanice,14.436037,50.0956456
Single Bar,14.4438072,50.0924259
Bistro LEON,14.4408987,50.0918822
U Bukanýra houseboat music bar,14.4276749,50.0934846
Letná Zahradní restaurace,14.425777,50.0959714
Tobruk,14.4325817,50.0918484
Freeride.cz Cafe Bar,14.4277739,50.0986358
Bejvávalo,14.4328827,50.092195
The James Joyce,14.4232586,50.0910424
La Casa Blů,14.422083,50.0911203
Cafe Fano,14.4241604,50.0908351
Aloha,14.420323,50.0904926
Vinárna U sv. Anežky,14.4238949,50.0918369
Drunken Monkey Prague Pub Crawl,14.420878,50.091685
Hangar Bar,14.4202252,50.0903543
Orange bar,14.4254142,50.0912792
"Európé R.P. s.r.o. - loď Európé, vyhlídkové plavby Praha",14.423099,50.092756
Loď Pivovar,14.425663,50.093493
VINYL BAR PRAGUE,14.4216568,50.0917486
Steak Bar El Pablo,14.4114766,50.0905214
Baterka Bar,14.4196769,50.09103
Kokpit kafe,14.4095389,50.0924553
Pipi Bar Prague,14.4174193,50.0909662
Skoda,14.4173641,50.0909186
Eurohotdog,14.4094893,50.0908322
Staropražská,14.4208784,50.0916849
Public Interest,14.4216277,50.0917638
Augustine Restaurant,14.4061121,50.0890982
Restaurace Waldštejnská Hospoda,14.4050784,50.0897115
Waldštejnská hospoda,14.405106,50.089703
Pivovar a restaurace Vojanův Dvůr,14.409886,50.0896892
Refectory Bar,14.406796,50.088977
U Hrocha,14.4032256,50.0892105
Beer Hall,14.4045872,50.0890303
Medieval Tavern - U krále Brabantského,14.4015768,50.0889871
U císařů,14.3948097,50.0887756
Bar U Gryfa,14.3931927,50.0907758
Café Neruda Prague,14.3975589,50.088634
Vinárna U Laury,14.4012885,50.0887335
Café Bar Arcadia,14.3988792,50.088639
Kellyxír - alchemical pub / Alchemical Lab Pub,14.39867,50.0880602
Golden Griffin Cafe,14.3933414,50.0907397
Schody Home Bar,14.4007172,50.0892711
Laundry Bar,14.3993562,50.0884157
호스테네치우코코우라,14.401957,50.088704
Browar Velkopopovicki Kozel,14.3917841,50.0881832
Vinotéka U dvou andílků,14.3688214,50.0878552
The cafe Wind,14.3527265,50.0880576
le fakap. café & bar,14.3492096,50.0851214
Abbey Granary,14.3558894,50.0840381
Bar Skřítek,14.3449626,50.0861177
Penzion a Restaurace Šimanda,14.5436347,50.0978099
Tankove Pivo,14.4972549,50.0917798
SEMPRE,14.4928809,50.0924603
Camel Club,14.4825066,50.0928283
Sportbar Na Chmelnici,14.4895479,50.0926119
Rebels,14.4802148,50.0923381
Prague Grill Park,14.4758619,50.0934807
Bar Na větvi,14.4742089,50.0917028
Kino Aero,14.4719146,50.090172
Prague Central Camp,14.4732316,50.0920777
Republic Zizkov,14.473297,50.091543
Cekarna Bar,14.4707739,50.0898888
Žižkov Beer Garden,14.4670207,50.0906866
Vozovna Žižkoff,14.4733936,50.0900938
CENTRAL Bar,14.472743,50.0910423
Biskupka,14.4702904,50.0898126
Karlínská Pivnice,14.45712,50.0926691
Shadow Cafe,14.4547006,50.0931203
Bar Tunel,14.4609047,50.0890052
Pivo Karlín,14.4575453,50.0920472
Sauna Labyrint,14.4485014,50.0898923
Hostinec U Tunelu,14.45315,50.090616
Na novým místě,14.452768,50.091129
Tomáš Trnka - Tony Bar,14.4526557,50.0914403
Café Bar Antony,14.4505084,50.0924846
Nejen Bistro,14.446926,50.091459
Ferns at Five,14.4515883,50.0934306
Hotel Jurys Inn Prague,14.439575,50.09147
Rock Club KAIN,14.4440342,50.0872953
Indian Aroma,14.4435194,50.0909356
Bistro Restaurant & Bar @ Jurys Inn Prague,14.439697,50.091507
U Českého lva,14.4391692,50.0914196
Bar Florenc,14.440313,50.089966
Art Deco Imperial Hotel,14.432864,50.089846
Wine & Dine,14.4316856,50.088227
Studio Memory,14.431518,50.091573
Gulden Draak Bierhuis,14.4311218,50.0912546
Cheers Club,14.4302899,50.0907405
Original Prague Beer Bike,14.435183,50.087526
Zinc Lounge & Bar,14.431746,50.088653
cafe Citadel,14.4296278,50.0918913
The Bourbon Bar Prague,14.4312443,50.0882041
Výtopna,14.429794,50.0892564
The Grand Mark Prague,14.431378,50.087089
black elephant,14.4225463,50.0880348
Nebe Cocktail & Music Bar Celnice,14.430332,50.088064
The Dubliner Irish Pub,14.4233374,50.0880958
James Dean Prague,14.422155,50.089534
Chapeau Rouge,14.4246868,50.0880584
Vinodivino,14.42561,50.08767
Siddharta Café,14.4258235,50.0882249
Dejavu music club Prague,14.425314,50.088147
Ungelt Jazz & Blues Club,14.4234504,50.0878971
Joe club,14.42741,50.089501
Pivnice Štupartská,14.4246673,50.08781
U Templáře,14.4250643,50.0897419
Bar Repete,14.4259835,50.0894458
Adele Restaurant & Bar,14.4282847,50.0883045
Old Town Square Hotel,14.421476,50.087037
Kogo Havelská - italian restaurant & bar,14.421964,50.085691
Hard Rock Cafe,14.4191442,50.0867312
Double Trouble,14.4205805,50.0858823
U Parlamentu,14.4166059,50.088249
U zlatého tygra,14.4180553,50.0858519
The Pub Praha 1,14.4159429,50.088003
Strip Bar Rio,14.4207946,50.0857944
LA VERANDA s.r.o.,14.4199516,50.0902555
Hany Bany,14.4162886,50.0879436
Residence U Černého Orla,14.4057279,50.087243
"Vinograf Míšeňská, wine bar",14.407817,50.0877607
Karlovy Lazne - Nightclub,14.4138002,50.0853997
Restaurace Malostranská beseda,14.4049,50.0883399
CottoCrudo,14.4143325,50.0877731
Golden Tree Prague,14.4149383,50.0858701
Klub Lávka,14.4130699,50.0855612
Prague Beer Museum,14.4139948,50.0850176
Bar Bluelight,14.4054265,50.0876798
Malostranská pivnice,14.4099655,50.0884452
Bar U Klíčů,14.4047887,50.0866684
O'Che's Bar,14.4164504,50.0854076
J.J. Murphy's Irish Pub,14.403356,50.087206
U Staré studny,14.4031234,50.0870456
U Malého Glena Jazz Club,14.4036262,50.0868321
Jo´s Bar & Restaurant,14.4032464,50.0876803
NAPA bar and gallery,14.404391,50.0867889
Bar Legend 13,14.4056289,50.0872632
U Magistra Kelly,14.3977835,50.087588
Klášterní pivovar Strahov,14.388276,50.086826
Ambix Bar,14.3993779,50.0874897
Klaster Monastery Beer Garden,14.3885255,50.0853394
Beer garden Petřín,14.3982938,50.0840031
U Kostel,14.4025417,50.0872558
Malostranská vinárna,14.4026254,50.0873225
Gambrinus,14.383487,50.0862496
Vinotéka U svatého Vincenta,14.3762202,50.0840896
Hostinec Drinopol,14.3712707,50.0836819
Majk L'Atmosphere,14.3776086,50.0846777
Valcha Restaurant,14.365911,50.083809
"66 CLUB ""Joy""",14.363979,50.0844824
Trafika u Pechů,14.3668446,50.0839254
Plzeňka,14.5451896,50.0928266
Edgar’s Prague,14.5383081,50.0941991
Bernard Pub,14.4692871,50.0885622
Polo,14.4683067,50.0891541
VendaBar,14.4690469,50.0877157
Xbowling,14.4654582,50.0852062
Bar u Čtyřky,14.4676369,50.0890916
U Nás,14.4646799,50.0881559
pallet Wine Shop,14.463507,50.087217
Jk,14.4617341,50.0870514
Briketa bar,14.4702424,50.0850638
Tennis Center Olšanská,14.460433,50.083835
Hospůdka Parukářka,14.4580951,50.0842427
Planeta Žižkov,14.4528388,50.0874819
Club Bar Divočák,14.4577195,50.0882827
Relax Centrum - Bowling,14.4548017,50.0875276
Storm Club Prague,14.454526,50.087699
Molecule foosball pub,14.4535761,50.0865866
Hospůdka Parukářka,14.4582297,50.0843953
Volvox Globator-knihkupectví,14.4500346,50.0851919
Vinný šenk U Pádivce,14.4518237,50.0841502
U Vystřelenýho oka,14.449494,50.0871572
Café Pavlač,14.448757,50.0842345
Victoria Bowling,14.4453658,50.0851513
U Pižďucha,14.4478595,50.0851455
La Pantera,14.4507528,50.0845742
Vinotéka Zizkov,14.4521311,50.0831287
Ceel,14.4502659,50.0871096
Žižkovský Camelot,14.4515634,50.0867064
Tiki Taky Bar,14.4510599,50.0861094
Belzepub,14.4443894,50.0825288
Boulder V Síti,14.4464384,50.0826228
U Kulaté báby,14.4445912,50.0862033
District 3 Bar,14.4416232,50.086240599999996
ORION Club Restaurant,14.4435427,50.0862376
Caesar Hookah Bar,14.4405512,50.0864916
Ugo,14.4440628,50.0852364
Downtown Club,14.446872,50.0862711
Hotel SOVEREIGN,14.430265,50.082061
Hoffa bar,14.4320682,50.0855773
"Vinograf Senovážné nám., Wine Bar & Restaurant",14.4316932,50.0854802
Whiskeria bar,14.4299767,50.0851367
Restaurant Sherwood,14.4315384,50.0827484
Vinárna Konírna,14.4303775,50.0870336
American Bar in the Municipal House in Prague,14.4282487,50.0876228
Two Steps Bar,14.431378,50.087089
Degustore,14.4309297,50.0860482
Hot Peppers,14.426765,50.0822867
U Medvídků,14.4188723,50.0827531
JAZZ REPUBLIC Live Music Club Prague,14.41859,50.084158
Vinotéka U Vavrysů,14.4210748,50.0844285
Friends Prague,14.4175702,50.0830744
Blues Sklep,14.416644,50.08509
Rock Café,14.418418,50.082011
Čili bar,14.4212723,50.0860815
AghaRTA Jazz Centrum,14.4220266,50.0863568
Café Lounge,14.405674,50.080674
"Alebrijes, Cocina Mexicana",14.4058479,50.082892
Hemingway Bar,14.4142812,50.0840083
Popocafepetl - Újezd,14.404326,50.083008
Pivovar & restaurace Boršov,14.414723,50.083704
Pivnice U Švejků,14.4047097,50.0818614
tempo Allegro,14.4142912,50.0838944
Pivnice U Švejků,14.4048048,50.0818949
Klub Újezd,14.4047192,50.0816138
Wine Cellar Újezd,14.404341,50.083015
La Bastille - restaurace,14.4046446,50.0822213
wine Újezd,14.4042296,50.08299
Pivnice U Černého Lva,14.4042548,50.0863205
Grilcentrum Silicon Hill,14.3956307,50.0811786
Club 001,14.3906378,50.0802344
Bar 10,14.395677,50.0795534
Ravis Wine & Tourism Ltd.,14.3395797,50.0773362
Herna Nonstop,14.3229949,50.0751386
U Gruzína,14.3190352,50.075084
Hospůdka Na Hrázi,14.2670399,50.0658873
Time Bar,14.6694826,50.0963637
Hotel Svornost,14.571443,50.088662
Hummer dakar bar,14.5631611,50.0905485
BAMBOO music pub,14.5064188,50.083232
Microbrewery Malešice,14.5076428,50.0846464
Vinárna a vinotéka AURA,14.5088544,50.0834778
VIŇAS,14.5064188,50.083232
Pivnice Oáza,14.5062789,50.0832067
Bar U Øcta,14.4973243,50.0826464
Vinotéka 3NVíno,14.4826687,50.0806516
VinVin vinný bar,14.457805,50.082707
U Mariánského obrazu,14.4494197,50.0821019
Wine Bar MaM,14.4585165,50.0798449
The Brutal Panda,14.4542602,50.0804028
Hospůdka Nad Viktorkou,14.4487109,50.0828817
"Vinárna, kavárna - U Posledního soudu",14.4525663,50.0792543
Cycling & Fitness,14.4534776,50.0801012
U Sadu,14.4493428,50.0805841
Club C13,14.4525589,50.0853356
Pivoteka Žižkoff,14.4511428,50.0847482
Bar Dobrý Časy,14.4543741,50.0803932
ANANAS BANANAS cocktail café bar,14.448019,50.084568
Vlkova 26,14.4468156,50.083374
Chartreuse bar,14.449125,50.0841
Night club Neon,14.4351643,50.0789968
The Saints,14.443153,50.078352
Kavárna Kaaba,14.436953,50.078617
iSauna Vinohrady,14.441933,50.078859
Bar Decentní Dýně,14.437175,50.078992
Restaurace Pastička,14.439587,50.078203
Strop Café,14.434625,50.0778849
Popocafepetl - Italská,14.436037,50.077573
Čekárna ČD Lounge,14.4351279,50.083718
Dandy,14.4385163,50.078711
Smokehouse Hookah Lounge&Bar,14.4365917,50.078724
Celebrity Cafe,14.440058,50.077145
Radisson Blu Alcron Hotel,14.4263256,50.0800347
Darling Cabaret,14.427833,50.0798601
be kara OK!,14.4305624,50.0769276
ALIBI. cocktail&music bar Praha,14.4293709,50.0772758
Rocky O'Reilly's,14.4259559,50.0795449
Friends Coffee House,14.423287,50.081061
Restaurace & Vinný bar Bresto,14.42495,50.078353
COMO restaurant & cocktail bar,14.4285,50.081164
Nebe Cocktail & Music Bar Václavské náměstí,14.428589,50.080131
Restaurace Jáma/The Hollow,14.425349,50.079985
Showdown Poker Club,14.429784,50.079306
Mosaic House,14.418014,50.077505
U Fleků,14.4169571,50.078841
Nebe Cocktail & Music Bar,14.4173755,50.0786501
Hooters,14.4214248,50.0787
Café Jericho Literary Cafe,14.4186312,50.0802545
U Sudu Wine Bar,14.4220447,50.0789458
Jazz Dock,14.4085002,50.0773858
q cafe,14.4174219,50.0793982
La Casa de La Havana vieja,14.418329,50.0805115
Charles Square Wine Shop - Wine Club Karlák,14.4189951,50.0771585
Al Capones,14.4158545,50.0824626
Bar Konvice,14.4175702,50.0830744
Bendy's bar,14.4174419,50.0786622
Švandův labyrint,14.4039991,50.0776348
U svatého Filipa a Jakuba,14.404864,50.076067
Casino ARBES,14.4037967,50.0759512
Punto,14.4029414,50.0770462
ART&FOOD Had,14.4063949,50.0807226
Restaurace U Dělového Kříže,14.4043385,50.0776208
At the pub Knight,14.407275,50.077934
Drake's,14.4073682,50.0792212
Kavárna 3+1,14.4055158,50.0806925
Atelier Red&Wine,14.4038407,50.0797509
Klub Kafe TERCIE,14.4069609,50.0782769
Monte Christo Bar,14.395408,50.073652
Zuby Nehty,14.4032083,50.0769844
Пивное депо,14.3943452,50.0737204
Rock bar Gorila,14.3941796,50.0737422
Made In Brasil,14.4039991,50.0776348
Nightmare Prague Horror Bar (2),14.4044188,50.0799409
NIGHTMARE Prague Horror Bar,14.4044188,50.0799409
Kočárek,14.3895144,50.0724256
JEEP BAR,14.3780624,50.0745979
KAJOT Intacto Praha Laudova,14.3132163,50.0686901
Originál Šenkovna,14.3023847,50.0660261
"Sport Bar ""Legenda""",14.2983895,50.06904
...JK bar...,14.3045073,50.065991
Lázně U Hastrmana,14.5820028,50.0884884
Bar NDR,14.5762245,50.0856112
Vinárna a Vinotéka Krásný Časy,14.5000589,50.0803398
Asti,14.4992626,50.0804995
Hostinec V Aleji,14.5043942,50.0785805
Rolls Royce & Bentley Club ČR,14.4992894,50.0781502
Miroir De Paris,14.4995252,50.0782032
Hospůdka Na Palouku,14.4884623,50.0786684
Bar Na Želvě,14.4763526,50.0779075
Bar želva,14.4763526,50.0779075
Naftař,14.475864,50.07677
Pivnice U Bergnerů,14.4639542,50.076873
cafe bar BOMON,14.466878,50.0784693
AAA Exclusive Club,14.4625565,50.0754943
INFINITY Restaurant & Music Bar,14.4628188,50.077222
Vinotéka Moravia,14.4583007,50.078389
Hospůdka V Ateliéru,14.4549364,50.0775658
Cocktail Pub Pulp Fiction,14.4541268,50.0797433
Na Radhošti,14.4559745,50.0797286
XCLUSIVE SOCIETY,14.4571564,50.0753018
Realita Bar Prague,14.4535442,50.0799556
Bacaro,14.4537579,50.077626
UGO freshbar,14.4612063,50.0785036
Kopa Bar,14.4594681,50.0775831
Café bar EPIZODA,14.4561642,50.0793387
Pivotéka Pivo a párek,14.4548954,50.0756115
Mega Fitness,14.455095,50.075307
Los v Oslu,14.4536777,50.0769797
Puerto Bar,14.4523811,50.0764957
Vinotéka Spiritus Vinus,14.4509751,50.0786835
Le Caveau Pekárna,14.4499797,50.0785893
Puerto Rico Cafe & Cocktail Bar,14.4523972,50.076368
Manesova Bar and Books,14.4441403,50.0776016
Víno u Ály,14.4428694,50.0766678
Veronika Carmanová,14.4453158,50.074286
Factory Club,14.4428444,50.07719
Wine Bar Vávrů,14.437614,50.076351
Peach Pit,14.4422528,50.0749956
Vínečko 33,14.4421563,50.0775806
Club Saigon,14.4435101,50.0780878
Jan Voráč - Poco Loco,14.4414288,50.0776815
Vinohradský Burger Bar,14.4436436,50.0771122
Radost FX,14.4323338,50.0759511
Legenda,14.4301837,50.0738809
The PUB Praha 2,14.4283676,50.0761791
Vinárna Vínečko,14.4343135,50.0724464
Restaurace U Havrana,14.4285627,50.0761913
Kavárna Pražírna,14.431331,50.074894
Klub 21,14.434834,50.077413
Balbín poetic pub,14.4339438,50.0769196
The Pub Pilsner Unique Bar,14.4283715,50.0761404
Restaurace Retro Kavárna,14.437834,50.074531
Pivovarský dům,14.4236843,50.0754566
Café Kolíbka,14.423165,50.078012
Placebo Pub,14.4314583,50.0765099
P.M. club cocktail & music bar,14.415911,50.070553
"Heaven Praha, spol. s r.o.",14.4147609,50.0747262
La Loca,14.4181179,50.077529
Art Restaurant Mánes,14.4141197,50.0774994
U Fausta,14.4184286,50.074122
Malá Bretaň,14.4177733,50.079702
Orlík - restaurant,14.4145242,50.0772153
Anette Hotel,14.40876,50.0721484
Cocktail bar Back Doors,14.4062553,50.0718736
Plzeňský restaurant Anděl,14.405029,50.07098
Futurum Music Bar,14.4076842,50.0739766
Pekelnej bar,14.40514,50.071654
Hospoda u Buldoka,14.406758,50.0725526
U Starého lva,14.4085218,50.0723034
Lokal Blok,14.405065,50.073059
Hospůdka Sokol,14.4078532,50.071283
Pivnice Jamajka,14.4068429,50.0714179
Pizzerie U Tučňáků,14.407889,50.0730859
Bar...Coming Soon,14.4059042,50.070525
Restaurace U Kristiána,14.4094424,50.0700322
Hotel NH Prague City,14.3972362,50.0713239
T.G.I. Friday's,14.4051734,50.0705461
Blázinec,14.4050998,50.0708368
Cyril's Pub,14.403215,50.0703
MaxLasergame,14.3921533,50.0723046
hospůdka pod mlynařkou,14.3942731,50.0722258
Tajmahal express,14.3963481,50.0713993
U Primátora,14.3956339,50.0729207
Restaurace Pod Černým vrchem,14.3896397,50.0713555
sport bar johnny cash,14.3885503,50.0718094
Johny Cash sportbar,14.3884155,50.0719346
Paddy's bar,14.3870612,50.0720267
Sky Lounge NH Prague,14.3963268,50.0699172
Pivnice Pod Mlynářkou,14.3828702,50.0709195
U Popelky,14.3834901,50.0701746
Little Bobby’s Hometown American Extravaganza,14.3879857,50.0681958
Bar Rum Bum,14.3764936,50.0706696
VINOTÉKA U LACHTANA,14.3722906,50.0698183
Na Závisti,14.3759256,50.0699655
Jitka Moravcová,14.3677447,50.0673117
Restaurace U Tenisu,14.3615522,50.0669059
Vinarna Pod Starymi Schody,14.367203,50.068111
Hotel Golf,14.344726,50.067289
Dr. Voják,14.3369651,50.0660306
Hotel Fortuna West,14.319278,50.065748
Code bar,14.3158732,50.0651338
Pivni Bar,14.3104954,50.0632706
Hospoda U Lesa,14.6711512,50.0878286
Fitness Klánovice,14.667826,50.091802
Pivnice Na Konečné U Trampa,14.5220937,50.0760037
Strašnické divadlo,14.499023,50.0753397
Šatlava,14.5002875,50.0767902
Vinný bar Ken,14.5005718,50.0751256
Gurman grill,14.4897548,50.0757693
Food House 18,14.4921256,50.0766042
U Kormidla,14.4900533,50.0753766
Beer Knír,14.4842077,50.0713616
U Bakaláře,14.4833331,50.0713108
Sportbar History,14.4700496,50.0720984
Kavka,14.4675746,50.0717857
Pivnice Ferdinand,14.4612222,50.0716571
Vinný ráj,14.4612377,50.0708867
Restaurace Hot Pepper Pub (U Pálivé Papričky),14.4589823,50.0709527
U Sporťáka,14.4565735,50.0690917
Restaurace U Klokoně,14.460755,50.070837
Vinotéka - kavárna KORUNNÍ 105,14.4549058,50.0755353
Coffee & bar Sappho,14.4506827,50.0761533
Joker Bar,14.4586035,50.0714654
Vinný šenk Pod Pergolou,14.4534049,50.075241
Galerie piva,14.4508052,50.0705772
Zelená Zahrada,14.442794,50.0708202
U Rozjetý žáby,14.4472571,50.0712906
The George Prague,14.445586,50.072737
Pivnice Pivovaru Trilobit,14.4502507,50.0718524
Bar v Krymský,14.4486197,50.0715813
Na břehu Rhôny Francouzská,14.4475171,50.0718194
Café V lese,14.4484711,50.0714079
Sběrné suroviny,14.4471705,50.0715493
Murphy's,14.4509402,50.0710417
Bougainvillea Bar & Store,14.4508947,50.070969
Hotel Ametyst,14.4362449,50.0707606
Las Adelitas,14.4392592,50.0715226
Oliveira - Wine | Tapas | Market,14.4414571,50.0710297
Ron Bar,14.4380005,50.0722481
Hostinec ResPUBlica,14.4331875,50.0718506
Lobby bar Ametyst,14.4362691,50.0706661
Evening Cafe Souterrain,14.4335723,50.0728823
Bar Black Sheep,14.4373416,50.0733796
Sklípek U Zlatého hroznu,14.433406,50.074018
Retro Cocktail & Music Bar,14.4378046,50.0745497
Již Brzy Bar,14.432232,50.070895
Magister Kelley,14.434013,50.0669214
Výloha Bar,14.4176659,50.0688574
bar Hidden,14.420238,50.068092
Bar Albertov,14.421374,50.067186
Mrtvá Ryba,14.4230714,50.0724527
Vinárna Na Hrádku,14.418863,50.071276
Naturel,14.4235953,50.0748872
U Suchý Dásně,14.4163144,50.07081
Moe's,14.4266779,50.0754167
Dead Jack Club,14.4244791,50.0756932
Whisky&Kilt,14.4309784,50.071628
BAR NOTA,14.4242007,50.076567
U Plavců,14.415776,50.07061
Revoluce Sex Night Club Praha,14.4232302,50.0754299
Bar U Ječmene,14.4266032,50.0754117
P.M. Club Ltd.,14.4156005,50.0706547
Locál Café & Bar,14.4152876,50.0738822
Oliveira - Boat,14.414231,50.069735
Na břehu Rhôny,14.4152105,50.0682808
Imago Mundi,14.414362,50.068352
U Bráchy,14.416675,50.0683742
Loď Captain Morgan,14.4135899,50.072652
The PUB Praha 5,14.4073078,50.0663942
Dog's Bollocks,14.4070626,50.0677417
Nagano 98 - Sportbar,14.4062297,50.068408
Hells Bells Oikea,14.4058356,50.0715645
DEWPUB Official DewPub Prague,14.401026,50.068795
Bernard Pub,14.4016013,50.0687383
Ufobar,14.3989915,50.0665419
SKOTSKÝ KLUB ŠEDÝ PES,14.3968329,50.0663278
Fruitisimo Radlická,14.4011331,50.071596
Radlická Kulturní Sportovna,14.4029035,50.0673896
Restaurace Plachta,14.405836,50.070293
La Macumba Music Latino bar,14.403744,50.0726811
Hostinec U Váhy,14.406333,50.068928
Vinný sklípek U Madony,14.3856419,50.0628722
Trafika - bistro,14.3604639,50.0630626
Fruitisimo Zličín,14.286827,50.053787
Restaurant Smolík,14.664622,50.086608
KARLOS Bar,14.6167991,50.081301
Kobra Bar,14.6168529,50.0816799
Fruitisimo Fashion Arena,14.538957,50.073981
Fruitisimo Europark,14.542387,50.072561
Restaurant Starý Pán,14.5091125,50.0721889
La Bomba,14.4938052,50.0687181
Švejk Restaurant Start,14.4914899,50.068816
Bar Vesna,14.4878849,50.0708709
Publikum,14.4892668,50.0699004
The Giraffe,14.482789,50.069905
iSauna Vršovice,14.478237,50.068635
House Mouse,14.4738654,50.0699286
Bar U Holek,14.4783953,50.0684738
Fruitisimo Eden,14.468629,50.067969
Pivnice U Stadionu,14.4697502,50.0695752
Eden Aréna V.I.P. Lounge,14.4707564,50.0677538
Milá Tchýně,14.4575506,50.0674143
Mistresses Winery,14.4560172,50.0674154
Vinotéka U milenky/ce,14.4560172,50.0674154
Monkey Bar & Lounge,14.4636037,50.0688025
Aprés Bar,14.4612915,50.0705839
Pivní zastávka,14.4600321,50.0704442
Clock craf beer,14.4599061,50.0705234
Tipsport bar,14.4603203,50.0677266
Hot Pepper Pub,14.45885,50.0709674
BARRIQÁDA,14.457894,50.068221
Kozlovna l.p. 1874,14.4555006,50.0674792
Waikiki,14.453183,50.0685898
Bowl Bar,14.4513313,50.0705433
100 Piv,14.4513228,50.0662112
Zlý časy,14.4420491,50.0643445
Hospoda Pohoda,14.4393514,50.0654918
Marova Letni Zahradka,14.4448728,50.0707129
Basement Bar,14.4464526,50.0718104
B52,14.443468,50.0722228
Sousedský Pivovar Bašta,14.4398265,50.0628617
Pivnice La Špeluňka,14.4394031,50.0655429
Woodstock Bar,14.434111,50.0682978
Pink Floyd Café,14.4386829,50.072101
Rockberry Bar & Music Club,14.4316622,50.0661217
Le Bouquet,14.435902,50.0717567
"Francouzská vína,sýry a pochutiny / Château Šafaříkova / French wine Prague",14.434144,50.071364
Jinový svět,14.4397245,50.0725104
Hospoda Pod Nuselským Mostem,14.4287821,50.0652316
Boothill Bar,14.4275099,50.065214
Bar Tvrdej Dopad,14.4309992,50.0649745
Sport Bar Time,14.4300337,50.0658377
Bracha Na Triku,14.4293981,50.0655837
Plzeňský Anny bar,14.4287821,50.0652316
Retro Bar,14.4306583,50.064922
Midgard Bar,14.4316527,50.0651678
Nuselská Blatnička,14.4263809,50.0651118
Galerka,14.4332162,50.068292
Kačerov,14.430261,50.0632116
U Olmerů - Rest & Pub,14.425256,50.063786
Aleš VANICKÝ - ALVA,14.4324564,50.0719742
Hostinec U Zlaté kotvy,14.4190211,50.0665004
Kafesha,14.4199423,50.0658881
Wine Bar Andílek,14.4189226,50.0662676
Cargo Gallery,14.415062,50.0655629
Kayak Beach Bar,14.4147169,50.0669249
Rest. Sním či jím,14.4191929,50.0614526
Hospůdka Na Hradbách,14.4220669,50.0636888
Botel Vodník,14.41145,50.0630674
PROSTOR ZEMĚ,14.4081359,50.0670688
Restaurace Na Růžku,14.4096067,50.060194
Pivnice Smíchoff Restaurace,14.4097338,50.0600213
Hospoda Brouk,14.4069156,50.0697891
U Prince Miroslava,14.3974406,50.0620485
Modrá Hvězda,14.4046758,50.0629934
Restaurace & bar Pradlenka,14.408471,50.064987
U Neostichu,14.3999708,50.0671283
Koloniál Charlie,14.3979759,50.0631483
Kočkodan v krabici,14.4097039,50.061936
Pivní bar Fantomas,14.4052283,50.0693336
Výčep Pod Komínem,14.4087812,50.0686863
Café Bar - bat,14.4051029,50.0699351
Bar Zličín,14.291272,50.0540127
kladno multigate,14.2875481,50.053295
Hospoda Na Padesatém,14.5058534,50.0662144
Vinoteka - Pivní Bar,14.4949262,50.0675487
Hostinec Na Rychtě - Jaroslava Vaňková,14.4680418,50.0613044
Ankali,14.4569049,50.0634995
Zubatý pes,14.453139,50.0639432
Pivnice U Müllerů,14.4532435,50.0635445
Restaurace Chapadlo,14.4454454,50.0618414
Toskana - farmářské trhy po italsku,14.4499908,50.0605433
KLENBA BAR,14.4459101,50.0620938
Vacuum Art Bar,14.4513228,50.0662112
Nevada,14.4484241,50.0608645
V pasti,14.4485135,50.0607577
Kafe Bar South & Herna,14.4467556,50.0615059
Kavárna Náš bar,14.4365299,50.0612036
Barkat S.r.o.,14.4472599,50.0590932
PYRÁT Pub & Pivnice,14.4426515,50.0637263
"Bar Michle, the first. bar - pivnice, kavárna, music bar",14.4416754,50.0637636
Злые Времена,14.442051,50.06434
Magic sportbar,14.4415504,50.0648231
Krušovická chalupa,14.4326338,50.0604052
Wine bar After years,14.4349646,50.0574324
Tobaco Music Bar,14.41989,50.059114
Restaurace U Horů,14.4213829,50.0586833
U Dragouna,14.423016,50.0571332
ScandalBar,14.4221499,50.0564732
Café Citadela Vyšehrad,14.4172382,50.0629809
Vinárna - Smíchov,14.4098802,50.059691
Climbing Center SmíchOff,14.4056897,50.0552497
Európé R.P. s.r.o. - parníky Praha,14.4110002,50.0568449
U Lučištníka,14.3983833,50.0556711
Restaurace Nová Hospoda,14.3603995,50.052545
Jinonická garáž (Cotton Bar),14.3615975,50.0536027
Sommeliers Wines S.r.o.,14.3575867,50.0545884
Sport bar Škoda,14.3498776,50.0528154
F1 Sport Bar,14.3451307,50.0508463
Šatlava,14.3424787,50.0536489
POHODA,14.3476033,50.050039
Vinotéka André,14.3432239,50.0506124
Hospoda Na Růžku,14.3392424,50.0528787
Zdeněk Švajda,14.3426269,50.0501575
Sokol Stodůlky,14.3109493,50.0501517
Games Room Bar Beam,14.3114976,50.0465882
Bohemia Wine,14.3038163,50.0461983
Rukodělný Pivovárek Třebonice,14.282408,50.044159
At The Lambs,14.27984,50.045291
Billiard Svět,14.6646,50.0752879
Občerstvení Dřevák,14.6634328,50.0757945
малешіце Вул.горнігордолеска,14.553928,50.066783
U Švehly,14.506124,50.060407
Вулиця Пампеліскова,14.5023735,50.0603075
Moes Bar,14.5035467,50.0595403
Michelská Krčma,14.4702789,50.0570613
Bumer BAR,14.4556696,50.0552545
wine bar,14.452303,50.05805
U Rumlíka,14.443988,50.0563871
U Plevů,14.4449375,50.0555262
The First,14.4522232,50.0547175
BEER BAR In Veseli,14.441569,50.0568727
Bar Suterén,14.4524145,50.0546223
HOTEL OYA,14.43697,50.054497
Sedmé nebe,14.4370344,50.0544697
ego Čajbar,14.428266,50.053998
"Studentský Klub - Bar ""U Dna""",14.4271069,50.0539927
Na Staré Sokolovně,14.4184483,50.0540537
Vagon Blanik,14.412443,50.0543604
Bajkazyl,14.4081814,50.0532377
Bar U veselé kozy,14.4099534,50.0509433
BubbleMania Praha - OC Galerie Butovice,14.354722,50.0474336
Bunkr,14.3317369,50.0452862
Fruitisimo Lužiny,14.3318511,50.0440923
Bar U Sama,14.3217611,50.0446859
Hrobař,14.321136,50.0448259
MagicPlanet,14.5077306,50.0570916
Pivní Bar-Topolová,14.5076258,50.0571098
Beer Bar Bell,14.504086,50.055231
Pivnice U Václava,14.4897319,50.0549697
U Krize,14.496345,50.057122
Hospudka U Kopeckych,14.4897319,50.0549697
Tyrkys bar,14.4900374,50.0541972
Bull Dog´s Dart´s Pub,14.4564927,50.0523216
SOMMELLERIE,14.4528808,50.0491065
Wine Bar,14.4521435,50.0537122
Bistro ve Sklepě,14.4547034,50.0518153
Fruitisimo Arkády,14.4391031,50.0511586
Bar Satelit,14.4397034,50.0523697
Žluté lázně,14.414186,50.048577
Podolee,14.4153403,50.047294
Pivovarská restaurace Dvorce,14.416055,50.0466835
U Velasů,14.4075011,50.0458655
Zlíchovská pivnice,14.4079884,50.0469498
Na Cvičáku,14.3873101,50.043357
Restaurant V Parku,14.5610099,50.056452
Pivnice u Tomáše,14.5610569,50.0580558
Hole in One,14.5319307,50.0523268
U Chmelového věnce,14.529723,50.0522585
Fruitisimo Park Hostivař,14.518006,50.053422
První Pivní Tramway,14.4819385,50.0504998
WINEBAR da Enrico,14.4775236,50.0461772
bar Kačerov,14.4618568,50.0467929
Pivnice Šťastná léta 80.,14.4641877,50.0471796
Pubs under the stairs,14.4619775,50.0469501
Coolna metropolitan bar-restaurant,14.445669,50.047453
Ugo Salaterie,14.4489849,50.0439243
Vinný bar & café,14.449201,50.0438971
Hostinec U Procházků,14.4412712,50.0479061
Vietboy Minipezo,14.4448844,50.0435493
Luxuria,14.4285188,50.0436792
Pizzeria Margherita,14.420657,50.0456591
Besední Restaurace u Ritschelů,14.3940002,50.0409843
Club Bar S5,14.3940138,50.0409684
Barchánková Jiřina Ing.,14.3898351,50.0394981
Hurdálkova chýše jedová,14.3897916,50.0419536
Fantasie,14.3387476,50.0379074
Tankovna Velká Ohrada,14.3379023,50.0380459
Restaurace a Pivovar Řeporyje,14.3129129,50.0334197
Hostivar H2,14.5619237,50.0494284
Hospoda Na Pahorku,14.5468881,50.0488208
Casino Bonver TAŠKENT,14.543992,50.0503149
PUB U Sousedů,14.53823,50.050696
Hostinec U Břehu,14.5338129,50.0478394
Vinotéka Václav Šašek,14.5244971,50.0483125
Vinárna Sýkora,14.5180312,50.0448776
Club 88,14.4976497,50.0444277
Borneo,14.4871131,50.0468
Music club Zaragoza,14.4611207,50.0429148
Vinotéka Soudek,14.4466179,50.0422244
pizzeria-ristorante La Casata,14.4381801,50.041017
havran bar,14.4381019,50.0411065
Sedmicka,14.4382832,50.0410684
Bar Kulovna,14.4119908,50.0385679
Hostinec U Kohouta,14.4139897,50.0357428
Bar Merkur,14.3831581,50.0353741
Klec,14.5581959,50.0455367
The Hostivar Brewery,14.5492942,50.0463757
Pivnice U Bazénu,14.5052123,50.0398638
Dugout Cantina,14.4342368,50.0335907
Buddy music Bar,14.4342366,50.0336087
Beach Braník,14.4210068,50.033083
Pod vrbou u Vltavy,14.4042685,50.0338119
Sportbar Barandov,14.3691168,50.0307156
Club Bar Korlin,14.3687229,50.0300426
PAP restaurant,14.3642431,50.0307843
U Knotků,14.3561655,50.0297692
Bonté,14.568163,50.039708
CENTRAL Music Bar,14.5327602,50.0401205
Beer garden,14.5321243,50.0399517
Music Club Jižák,14.5154225,50.0373543
Stáčírna Vítka I. z Prčice,14.5104527,50.0393914
bar Monika,14.5002475,50.0352057
"3F Prague, S.r.o.",14.4831803,50.03255
Bar Chrpa,14.4819755,50.032706
HOTEL GLOBUS,14.476314,50.034243
Mercuria Laser Game Braník,14.4104489,50.0297009
Restaurace Višňovka,14.5560337,50.035887
Občerstvení V Zátiší,14.5500545,50.0373211
Hospoda Na Hřišti,14.5333739,50.0353385
Herna Borneo,14.5289123,50.0320436
PIVNÍ BAR 11,14.5186814,50.0327295
U Máji,14.5155518,50.0324795
Goučko,14.5155276,50.0325555
Gogo Bar,14.5157031,50.0324967
Pivnice Kozel,14.5069253,50.0330108
Vinárna u Papežů,14.5030045,50.0308082
Potrefená Husa,14.4914052,50.0317985
Fruitisimo The Park,14.4940536,50.0289599
Fruitisimo Chodov,14.489889,50.031403
IQOS Chodov,14.4909949,50.031396
Restaurace Školka,14.4828464,50.0296967
Fruitisimo The Park,14.4934399,50.0284058
Café Level & Club,14.489051,50.0310247
pub Pipkin,14.4517465,50.0258529
Daniel Pojda,14.4317919,50.0243084
Bar El Clasico,14.4258532,50.0251234
Garáž,14.412092,50.0222766
Vodpočívárna,14.3981392,50.0228605
Forbes Aréna Casino,14.5297311,50.0312343
Koulovna,14.5285613,50.0316562
herna U raka,14.5345959,50.0302782
Sportbar Ladybird,14.5346883,50.0300981
HÁJENKA Bar Herna,14.5293562,50.0310585
Sport bar Chilská,14.5078068,50.0279606
Hospoda 213,14.5150997,50.025627
Vinotéka Slovácký sklípek Krč,14.4517907,50.0233014
Magic bar,14.4518439,50.0221784
U Krychle,14.4334322,50.0194451
Pivovarská restaurace,14.6049392,50.0297298
BBQ U Davida,14.6006698,50.030358
Uhříněveský Bar,14.6005426,50.029537
"Cyklobar ""Shield""",14.5557535,50.0242871
aerobic Monika,14.5170628,50.0252354
U Kajmana,14.5164598,50.0235309
Club Bourák,14.5150799,50.0226705
Pivovar Spojovna,14.4990491,50.0201546
Smoky Place,14.4973964,50.0198122
The Green Bird,14.487994,50.022216
Vinárna U dvou přátel,14.487792,50.022224
Excellent kolej Pub,14.4938108,50.0200922
Restaurant And Wine Zelene Domky,14.4681568,50.016851
Greek market,14.4471899,50.0191344
Vinárna Barbora Zavadilová,14.437289,50.0150069
Rio Sportbar,14.4353599,50.0154432
Cklub Kamýk,14.438033,50.0146573
Club Kamýk,14.4380313,50.0146542
Country hospůdka Puppy,14.4283781,50.0150205
Modřanské Labe,14.4215626,50.0132644
Pivnice Modřany,14.42198,50.0129677
Restaurant On the track,14.3896118,50.0092697
Hospůdka U Studánky,14.4946269,50.0143531
Lokál U Zavadilů,14.4855249,50.0140749
Food Story Kunratice,14.4842882,50.0134339
Decinka - Decentní vinotéka,14.4823945,50.013184
Originál 1869 U Hertlů,14.4571382,50.0138241
한정구의 집,14.4616067,50.0111008
Maropo - v.i.p. music club,14.4488816,50.0121022
Sportbar Panda,14.4456683,50.0135839
Karaoke Disco Prague,14.4262645,50.0077477
21 regal,14.4281106,50.0089325
Pivnice Sázava,14.4275963,50.0086011
Bar Sázava,14.4276087,50.0085524
Joker,14.4166533,50.0070177
Restaurace U Splavu,14.6057873,50.0231973
Občerstvení na hřišti A.F.K. Olympia Šeberov,14.5131056,50.0107875
Občerstvení u námořníka,14.4948831,50.0101014
Classic Bar Studio,14.464806,50.010837
Václav Řepa - Hostinec U Eimů,14.4628017,50.0083058
Bar Modrák,14.4551177,50.0087119
Modrý Bar,14.4547179,50.0083618
Restaurace Pátá Meta,14.4471032,50.0090245
Restaurace Želivka,14.4336032,50.0056519
Cafe in Exile,14.4164507,50.0053554
"Chorvatská rybí restaurace ""DECO""",14.4052742,50.0029871
Bar Pomeranč,14.4039745,50.0049881
Club Tropicana,14.6524403,50.0177701
"Hospůdka u ""Vendyse""",14.5467447,50.0129246
LIFESTYLE HOTEL,14.466515,50.003836
"Bar ""U Nebíčka""",14.466084,50.006034
Bara HK spol. S R.o.,14.4719261,50.0063118
Lifestyle Karaoke,14.4665695,50.0037863
Lifestyle Karaoke,14.4663987,50.0038184
Pizzerie Mont Fort,14.4272852,50.0002226
Cyklokavárna RoudBike,14.4043764,49.9990662
Cyklokavárna RouBike,14.4043824,49.9987381
Teodoro s.r.o.,14.487555,49.998801
Klub Bažina,14.4101585,49.9925843
Loco Bar,14.4045068,49.9935577
TORTUGA gril-bar,14.394335,49.993055
Komořanská Pivnice,14.4097256,49.99083
Vinotéka U Karolínky,14.3648899,49.9851666
Tipsport bar,14.3602884,49.9858911
Na Růžku,14.3576032,49.985196
Sport bar U Sporťáka,14.3569881,49.9826637
Bistro U Ondřeje,14.364512,49.9822782
Beach Arena Radotín,14.3584466,49.97917
Lipanská hospůdka,14.6170103,49.999168
Zbraslavský Hostinec,14.3938333,49.9770316
U Posledního Kelta,14.399413,49.973482
Kiosek Konec Žízně,14.3990444,49.9749773
Hospoda na Točné,14.4311353,49.9728397
Sport Bar,14.3860638,49.9693554
Sport bar Sportivo,14.3859399,49.9692759
EMBASSY CLUB - Private Music Club,14.384131,49.968601
Wineport Ltd.,14.3811585,49.9654926
Sushi Sushi,14.3782255,49.9676721
U Kapitána,14.3321808,49.9626183
